[
  {
    "name": "Cody's Cafe",
    "address": "405 W. Superior St., Chicago, IL 60654",
    "phoneNumber": "(111)-111-1111",
    "coordinates": [41.895334, -87.639029],
    "isVisible": true,
    "categoryId": 1,
    "userId": 1,
    "tags": ["bakeries", "coffee", "tea"]
  },

  {
    "yelpId": "qjnpkS8yZO8xcyEIy5OU9A",
    "name": "Girl & the Goat",
    "imageUrl":
      "https://s3-media1.fl.yelpcdn.com/bphoto/ya6gjD4BPlxe7AKMj_5WsA/o.jpg",
    "coordinates": [41.8841049992939, -87.6479440725005],
    "address": "809 W Randolph St, Chicago IL, 60607",
    "phoneNumber": "+13124926262",
    "categoryId": 1,
    "userId": 3,
    "tags": ["goat meat", "bakeries", "coffee", "tea"]
  },
  {
    "yelpId": "cKZNbMvoqJaUe7n6lf6i7w",
    "name": "Wildberry Pancakes and Cafe",
    "imageUrl":
      "https://s3-media2.fl.yelpcdn.com/bphoto/9ZnC8R_MgeIKWV-5IedwNg/o.jpg",
    "coordinates": [41.884668, -87.62288],
    "address": "130 E Randolph St,Chicago, IL 60601",
    "phoneNumber": "+13129389777",
    "categoryId": 1,
    "userId": 4,
    "tags": ["pancakes", "bakeries", "coffee", "tea"]
  },
  {
    "yelpId": "xoi7Cw7FoknAx5p880RtWQ",
    "name": "Au Cheval",
    "imageUrl":
      "https://s3-media4.fl.yelpcdn.com/bphoto/a0yhvSJX_6i28iwS9egDFg/o.jpg",
    "coordinates": [41.88466, -87.647668],
    "address": "800 W Randolph St, Chicago, IL 60607",
    "phoneNumber": "+13129294580",
    "categoryId": 1,
    "userId": 6,
    "tags": ["goat meat", "bakeries", "coffee", "tea"]
  },
  {
    "yelpId": "boE4Ahsssqic7o5wQLI04w",
    "name": "The Purple Pig",
    "imageUrl":
      "https://s3-media4.fl.yelpcdn.com/bphoto/M6pJaV5NImbmjQhor_2mAg/o.jpg",
    "coordinates": [41.89101954311, -87.6245617816512],
    "address": "500 N Michigan Ave, Chicago, IL 60611",
    "phoneNumber": "+13124641744",
    "categoryId": 1,
    "userId": 5,
    "tags": ["pork", "bakeries", "coffee", "tea"]
  },
  {
    "yelpId": "LPwAwxEjetjdNh7Uadro3g",
    "name": "Smoque BBQ",
    "imageUrl":
      "https://s3-media4.fl.yelpcdn.com/bphoto/T-oNCsrLiZc2lwrI3r9phQ/o.jpg",
    "coordinates": [41.95021, -87.72795],
    "address": "3800 N Pulaski Rd, Ste 2,Chicago, IL 60641",
    "phoneNumber": "+17735457427",
    "categoryId": 1,
    "userId": 7,
    "tags": ["smoke bbq", "bakeries", "coffee", "tea"]
  },
  {
    "yelpId": "8vFJH_paXsMocmEO_KAa3w",
    "name": "Lou Malnati's Pizzeria",
    "imageUrl":
      "https://s3-media1.fl.yelpcdn.com/bphoto/cv0OrGAkBn4qdFOm3zuFjQ/o.jpg",
    "coordinates": [41.890357, -87.633704],
    "address": "439 N Wells St, Chicago, IL 60654",
    "phoneNumber": "+13128289800",
    "categoryId": 1,
    "userId": 8,
    "tags": ["pizza", "bakeries", "coffee", "tea"]
  },
  {
    "yelpId": "apyIymDFbUK7u-Y3V5kmkA",
    "name": "Bavette's Bar & Boeuf",
    "imageUrl":
      "https://s3-media4.fl.yelpcdn.com/bphoto/umjQHAZBktNxz0LsqUyFxQ/o.jpg",
    "coordinates": [41.8892796234574, -87.6348227262497],
    "address": "218 W Kinzie St, Chicago, IL 60654",
    "phoneNumber": "+13126248154",
    "categoryId": 1,
    "userId": 9,
    "tags": ["beef", "Bar", "bakeries", "coffee", "tea"]
  },
  {
    "yelpId": "-sdMTRmgExufOk6STZFi9w",
    "name": "Little Goat Diner",
    "imageUrl":
      "https://s3-media3.fl.yelpcdn.com/bphoto/FEdL5JcbVf5NFEB3s5S8Mg/o.jpg",
    "coordinates": [41.8846460590586, -87.6484126982138],
    "address": "820 W Randolph St,Chicago, IL 60607",
    "phoneNumber": "+13128883455",
    "categoryId": 1,
    "userId": 10,
    "tags": ["goat meat", "bar", "Bar", "coffee", "tea"]
  },
  {
    "yelpId": "rp17Dfjdh7JR4GGZwj6nqg",
    "name": "Portillo's Hot Dogs",
    "imageUrl":
      "https://s3-media2.fl.yelpcdn.com/bphoto/-9jRmNrw7QgjcUn_EXVsEA/o.jpg",
    "coordinates": [41.8934295, -87.6314147],
    "address": "100 W Ontario, Chicago, IL 60654",
    "phoneNumber": "'+13125878910'",
    "categoryId": 1,
    "tags": ["hot dogs ", "coffee", "tea"]
  },
  {
    "yelpId": "y8jVBaHh8ntYkVqDXpsi1Q",
    "name": "Cafe Ba-Ba-Reeba!",
    "imageUrl":
      "https://s3-media2.fl.yelpcdn.com/bphoto/jMNRpAcS1sPTAcSSTfCDrg/o.jpg",
    "coordinates": [41.918984, -87.648687],
    "address": "2024 N Halsted St, Chicago, IL 60614",
    "phoneNumber": "+17739355000",
    "categoryId": 1,
    "tags": ["bakeries", "coffee", "tea"]
  }
]
